nom;pays;domaine;latitude;longitude;site_web;lien_don;pays_intervention
Médecins Sans Frontières;Mali;Santé;12.6392;-8.0029;https://www.msf.org;https://www.msf.fr/agir/soutenir-nos-actions/faire-un-don-en-ligne;"Afghanistan;Bangladesh;Brazil;Burkina Faso;Burundi;Cambodia;Cameroon;Central African Republic;Chad;Comoros;Côte d’Ivoire;Democratic Republic of Congo;Egypt;Ethiopia;Guinea;Guinea-Bissau;Haiti;India;Iran;Iraq;Jordan;Kazakhstan;Kenya;Lebanon;Liberia;Libya;Malawi;Mali;Mozambique;Niger;Nigeria;Pakistan;Palestine;Senegal;Sierra Leone;Somalia;Somali"
Save the Children;Ethiopia;Éducation;9.145;40.4897;https://www.savethechildren.net;https://www.savethechildren.org/support-us/donate;"Afghanistan;Albania;Argentina;Australia;Bangladesh;Bhutan;Bosnia;Dominican Republic;El Salvador;Guatemala;Haiti;Honduras;India;Iraq;Jordan;Kazakhstan;Kenya;Lebanon;Mexico;Pakistan;South Sudan;Sudan;Syria;Ukraine;Yemen;Vanuatu;Papua Guinea;Solomon Islands"
CARE International;Niger;Urgence;17.6078;8.0817;https://www.care.org;https://www.care.org/donate;"Afghanistan;Bangladesh;Cambodia;Ethiopia;India;Indonesia;Jordan;Kenya;Laos;Malawi;Mozambique;Mexico;Myanmar;Pakistan;Palestinian Territories;Papua Guinea;South Africa;Sri Lanka;Timor-Leste;Vanuatu;Vietnam;Yemen;Albania;Armenia;Austria;Azerbaijan;Belgium;Bosnia;Croatia;Czech Republic;Denmark;Egypt;France;Georgia;Germany;Iraq;Kosovo;Lebanon;Luxemburg;Macedonia;Montenegro;Morocco;Netherlands;Norway;Romania;Serbia;Switzerland;Syria;Turkey;United Kingdom;Canada;United States of America;Bolivia;Guatemala;Brazil;Dominican Republic;Haiti;Cuba;Honduras;Ecuador;Nicaragua;El Salvador;Panama;Peru"
Action Contre la Faim;Senegal;Nutrition;14.4974;-14.4524;https://www.actioncontrelafaim.org;https://www.actioncontrelafaim.org/s-engager/faire-un-don?;"Afghanistan;Éthiopie;Nigéria;République démocratique du Congo;Tchad;Ukraine;Yémen;Côte d’Ivoire;Mauritanie;Soudan;Somalie;Kenya;Liban;Madagascar;Mali;Mozambique;Zimbabwe"
Plan International;Cameroon;Éducation;7.3697;12.3547;https://plan-international.org;https://plan-international.org/get-involved/make-a-donation/;"Benin;Bolivia;Brazil;Cambodia;Cameroon;China;Colombia;Dominican Republic;Ecuador;Ethiopia;Guinea;Haiti;Honduras;India;Jordan;Laos;Lebanon;Liberia;Mali;Mexico;Mozambique;Myanmar;Niger;Nigeria;Paraguay;Peru;Rwanda;Sierra Leone;Solomon Islands;South Sudan;Sudan;Timor-Leste;Togo;Uganda;Zimbabwe;Australia;Belgium;Canada;Denmark;Finland;France;Germany;Hong Kong;Ireland;Italy;Japan;Korea;Netherlands;Norway;Spain;Sweden;Switzerland;United Kingdom;United States of America"
Oxfam;Burkina Faso;Développement;12.2383;-1.5616;https://www.oxfam.org;https://give.oxfamamerica.org/page/73920/donate/1?;"Algeria;Argentina;Australia;Bangladesh;Belgium;Benin;Bolivia;Brazil;Burkina Faso;Cambodia;Canada;Central African Republic;Chad;China;Colombia;Costa Rica;Denmark;Democratic Republic of Congo;Egypt;El Salvador;Ethiopia;Fiji;France;Germany;Ghana;Great Britain;Guatemala;Haiti;Honduras;Indonesia;Iraq;Italy;Ireland;Jordan;Kenya;Laos;Lebanon;Morocco;Mozambique;Niger;Nigeria;Occupied Palestinian Territories;Somalia;South Sudan;Sudan;Syria;Uganda;Vietnam;Yemen"
World Vision;Rwanda;Éducation;-1.9403;29.8739;https://www.wvi.org;https://www.wvi.org/donate?;"Afghanistan;Albania;Armenia;Bangladesh;Bolivia;Brazil;Burkina Faso;Cambodia;Cameroon;Chad;Chile;China;Colombia;Democratic Republic of Congo;Dominican Republic;Ecuador;El Salvador;Ethiopia;Ghana;Guatemala;Haiti;Honduras;India;Indonesia;Jordan;Kenya;Laos;Lebanon;Lesotho;Malawi;Mali;Mauritania;Mexico;Mongolia;Mozambique;Myanmar;Nepal;Nicaragua;Niger;Peru;Philippines;Romania;Rwanda;Senegal;Sierra Leone;Solomon Islands;Somalia;South Sudan;Sri Lanka;Sudan;S"
Handicap International;Morocco;Santé;31.7917;-7.0926;https://www.handicap-international.org;https://don.handicap-international.fr/don-hi/~mon-don?_cv=1;"Afghanistan;Algeria;Bangladesh;Benin;Burkina Faso;Burundi;Cambodia;Cameroon;Central African Republic;Chad;Colombia;Congo;Democratic Republic of Congo;Egypt;Ethiopia;Guinea;Haiti;India;Indonesia;Iraq;Jordan;Kenya;Laos;Lebanon;Liberia;Madagascar;Mali;Morocco;Mozambique;Myanmar;Nepal;Niger;Pakistan;Palestine;Philippines;Rwanda;Senegal;Sierra Leone;Somalia;South Sudan;Sri Lanka;Sudan;Syria;Togo;Tunisia;Uganda;Ukraine;Vietnam;Yemen"
SOS Villages d’Enfants;Ivory Coast;Enfance;7.5399;-5.5471;https://www.sos-childrensvillages.org;https://www.sosve.org/faire-un-don-regulier/?_gl=1*1f5nme5*_up*MQ..*_gs*MQ..&gclid=Cj0KCQjwvJHIBhCgARIsAEQnWlAg2SzaRKYkScfhFuOEm_DJ29wKA9CO79zkDPF9aCbfabw8dqJO-vEaAudPEALw_wcB&gbraid=0AAAAADbu7247dp9Qc2QFe5K3xjTD7skF6;"Albania;Algeria;Angola;Argentina;Armenia;Bangladesh;Benin;Bolivia;Bosnia;Botswana;Brazil;Bulgaria;Burkina Faso;Burundi;Cambodia;Cameroon;Central African Republic;Chad;Chile;China;Colombia;Congo;Costa Rica;Cote d’Ivoire;Croatia;Czech Republic;Denmark;Dominican Republic;Ecuador;Egypt;El Salvador;Ethiopia;Finland;France;Gambia;Georgia;Germany;Ghana;Greece;Guatemala;Guinea;Haiti;Honduras;Hungary;India;Indonesia;Italy;Jordan;Kenya;Kosovo;Latvia;Lebanon;Lesotho;Liberia;Lithuania;Mada"
WaterAid;Nigeria;Eau;9.082;8.6753;https://www.wateraid.org;https://www.wateraid.org/donate?;"Bangladesh;Burkina Faso;Cambodia;Ethiopia;Ghana;India;Madagascar;Malawi;Mozambique;Myanmar;Nepal;Nicaragua;Niger;Nigeria;Pakistan;Papua Guinea;Rwanda;Sierra Leone;Tanzania;Uganda;Zambia"
Red Cross;Kenya;Urgence;-0.0236;37.9062;https://www.ifrc.org;https://www.savethechildren.net/donate/nmm-aidez-les-enfants-en-situation-de-crise?utm_source=pmax&utm_medium=display&utm_campaign=gaza&utm_content=gazasoraya_fr_pplow_arc582&utm_term=don&gad_source=1;"Afghanistan;Albania;Algeria;Angola;Argentina;Armenia;Australia;Austria;Bangladesh;Belgium;Benin;Bolivia;Bosnia;Botswana;Brazil;Bulgaria;Burkina Faso;Burundi;Cambodia;Cameroon;Canada;Central African Republic;Chad;Chile;China;Colombia;Congo;Costa Rica;Cote d’Ivoire;Croatia;Cuba;Cyprus;Czech Republic;Denmark;Dominican Republic;Ecuador;Egypt;El Salvador;Eritrea;Estonia;Ethiopia;Finland;France;Gabon;Gambia;Georgia;Germany;Ghana;Greece;Guatemala;Guinea;Guinea Bissau;Haiti;Honduras;Hungary;Iceland;India;Indonesia;Iran;Iraq;Ireland;Israel;Italy;Jamaica;Japan;Jordan;Kazakhstan;Kenya;Kuwait;Kyrgyzstan;Laos;Latvia;Lebanon;Lesotho;Liberia;Libya;Lithuania;Luxembourg;Madagascar;Malawi;Malaysia;Mali;Malta;Mauritania;Mexico;Moldova;Monaco;Mongolia;Montenegro;Morocco;Mozambique;Myanmar;Namibia;Nepal;Nicaragua;Niger;Nigeria;North Macedonia;Norway;Pakistan;Palestine;Panama;Papua Guinea;Paraguay;Peru;Philippines;Poland;Portugal;Qatar;Romania;Russia;Rwanda;Saudi Arabia;Senegal;Serbia;Sierra Leone;Singapore;Slovakia;Slovenia;Somalia;South Africa;South Korea;South Sudan;Spain;Sri Lanka;Sudan;Suriname;Sweden;Switzerland;Syria;Tanzania;Thailand;Togo;Trinidad;Tunisia;Turkey;Uganda;Ukraine;United Arab Emirates;United Kingdom;United States;Uruguay;Uzbekistan;Venezuela;Vietnam;Yemen;Zambia;Zimbabwe"
UNICEF;;Enfance;-30.5595;22.9375;https://www.unicef.org;https://don.unicef.fr/don-unicef/?utm_source=google&utm_medium=cpc&utm_campaign=DRTVPA_sea_20251022&utm_term=&utm_content=;"Afghanistan;Albania;Algeria;Angola;Argentina;Armenia;Azerbaijan;Bangladesh;Belarus;Belize;Benin;Bhutan;Bolivia;Bosnia;Botswana;Brazil;Bulgaria;Burkina Faso;Burundi;Cambodia;Cameroon;Central African Republic;Chad;Chile;China;Colombia;Comoros;Congo;Costa Rica;Cote d’Ivoire;Croatia;Cuba;Cyprus;Czech Republic;Democratic Republic of Congo;Denmark;Djibouti;Dominican Republic;Ecuador;Egypt;El Salvador;Equatorial Guinea;Eritrea;Eswatini;Ethiopia;Fiji;Finland;France;Gabon;Gambia;Georgia;Germany;Ghana;Greece;Guatemala;Guinea;Guinea Bissau;Guyana;Haiti;Honduras;Hungary;India;Indonesia;Iran;Iraq;Ireland;Israel;Italy;Jamaica;Japan;Jordan;Kazakhstan;Kenya;Kuwait;Kyrgyzstan;Laos;Latvia;Lebanon;Lesotho;Liberia;Libya;Lithuania;Luxembourg;Madagascar;Malawi;Malaysia;Maldives;Mali;Malta;Mauritania;Mauritius;Mexico;Moldova;Mongolia;Montenegro;Morocco;Mozambique;Myanmar;Namibia;Nepal;Nicaragua;Niger;Nigeria;North Macedonia;Norway;Oman;Pakistan;Palestine;Panama;Papua Guinea;Paraguay;Peru;Philippines;Poland;Portugal;Qatar;Romania;Rwanda;Saudi Arabia;Senegal;Serbia;Sierra Leone;Singapore;Slovakia;Slovenia;Solomon Islands;Somalia;South Africa;South Korea;South Sudan;Spain;Sri Lanka;Sudan;Suriname;Sweden;Switzerland;Syria;Tajikistan;Tanzania;Thailand;Timor Leste;Togo;Trinidad;Tunisia;Turkey;Turkmenistan;Uganda;Ukraine;United Arab Emirates;United Kingdom;United States;Uruguay;Uzbekistan;Venezuela;Vietnam;Yemen;Zambia;Zimbabwe"
World Food Programme;South Sudan;Nutrition;6.877;31.307;https://www.wfp.org;https://europe.mercycorps.org/en-gb/donate;"Afghanistan;Albania;Algeria;Angola;Armenia;Bangladesh;Benin;Bhutan;Bolivia;Bosnia;Botswana;Brazil;Burkina Faso;Burundi;Cambodia;Cameroon;Central African Republic;Chad;Chile;China;Colombia;Congo;Costa Rica;Cote d’Ivoire;Cuba;Democratic Republic of Congo;Djibouti;Dominican Republic;Ecuador;Egypt;El Salvador;Eswatini;Ethiopia;Gabon;Gambia;Ghana;Guatemala;Guinea;Guinea Bissau;Haiti;Honduras;India;Indonesia;Iran;Iraq;Jordan;Kenya;Kyrgyzstan;Laos;Lebanon;Lesotho;Liberia;Libya;Madagascar;Malawi;Mali;Mauritania;Mozambique;Myanmar;Namibia;Nepal;Nicaragua;Niger;Nigeria;Pakistan;Palestine;Panama;Papua Guinea;Paraguay;Peru;Philippines;Rwanda;Senegal;Sierra Leone;Somalia;South Sudan;Sri Lanka;Sudan;Syria;Tanzania;Timor Leste;Togo;Tunisia;Turkey;Uganda;Ukraine;Venezuela;Vietnam;Yemen;Zambia;Zimbabwe"
Mercy Corps;Uganda;Développement;1.3733;32.2903;https://www.mercycorps.org;https://europe.mercycorps.org/en-gb/donate;"Afghanistan;Armenia;Bangladesh;Burkina Faso;Cameroon;Central African Republic;Colombia;Democratic Republic of Congo;Ecuador;Egypt;Ethiopia;Georgia;Guatemala;Haiti;Indonesia;Iraq;Jordan;Kenya;Lebanon;Liberia;Libya;Malawi;Mali;Mongolia;Morocco;Mozambique;Myanmar;Nepal;Niger;Nigeria;Pakistan;Palestine;Panama;Philippines;Somalia;South Sudan;Sudan;Syria;Tajikistan;Tunisia;Turkey;Uganda;Ukraine;Venezuela;West Bank;Yemen;Zambia"
Islamic Relief;Ethiopia;Urgence;9.145;40.4897;https://www.islamic-relief.org;https://fr.islamic-relief.org/donation/;"Afghanistan;Albania;Bangladesh;Bosnia;Burkina Faso;Chad;China;Ethiopia;Gambia;India;Indonesia;Iraq;Jordan;Kenya;Kosovo;Lebanon;Liberia;Malawi;Mali;Mauritania;Mozambique;Myanmar;Niger;Nigeria;Pakistan;Palestine;Philippines;Somalia;South Africa;South Sudan;Sri Lanka;Sudan;Syria;Tanzania;Tunisia;Turkey;Uganda;United Kingdom;Yemen"
Doctors of the World;Guinea;Santé;9.9456;-9.6966;https://www.medecinsdumonde.org;https://donate.doctorsoftheworld.org.uk/page/142795/donate/1?ea.tracking.id=tpzffpgu;"Afghanistan;Bangladesh;Bosnia;Burkina Faso;Central African Republic;Chad;Colombia;Congo;Democratic Republic of Congo;Egypt;El Salvador;Ethiopia;Georgia;Greece;Guatemala;Haiti;Honduras;Iraq;Jordan;Kenya;Lebanon;Liberia;Libya;Madagascar;Mali;Morocco;Mozambique;Myanmar;Niger;Nigeria;Palestine;Philippines;Romania;Senegal;Sierra Leone;Somalia;South Sudan;Sudan;Syria;Tanzania;Tunisia;Turkey;Ukraine;Yemen"
AVSI Foundation;Kenya;Éducation;-0.0236;37.9062;https://www.avsi.org;https://www.avsi.org/en/support-us/donate-now;"Albania;Benin;Brazil;Burundi;Cameroon;Central African Republic;Chad;Congo;Cote d’Ivoire;Democratic Republic of Congo;Ecuador;El Salvador;Haiti;Ivory Coast;Kenya;Lebanon;Mexico;Mozambique;Myanmar;Rwanda;Sierra Leone;South Sudan;Syria;Uganda"
Human Appeal;Sudan;Santé;12.8628;30.2176;https://humanappeal.org.uk;https://humanappeal.fr/faire-un-don?gad_source=1&gad_campaignid=20073571846&gbraid=0AAAAApW6xf8UZ6mjbhBli4O2rMO-nKhgs&gclid=Cj0KCQjwvJHIBhCgARIsAEQnWlCXwsXOD8H8qGhmnN3Bsodxo-0B5m8AvYxV_A0MxoAi5sW8-ZVIvKsaAjJEEALw_wcB;"Afghanistan;Bangladesh;Bosnia;Chad;Ethiopia;Gaza;India;Iraq;Jordan;Kenya;Lebanon;Libya;Malawi;Mali;Morocco;Niger;Nigeria;Pakistan;Palestine;Somalia;South Sudan;Sudan;Syria;Tanzania;Tunisia;Turkey;Yemen"
The Hunger Project;Benin;Développement;9.3077;2.3158;https://thp.org;https://thp.planmylegacy.org/donor-advised-funds;"Bangladesh;Benin;Burkina Faso;Ethiopia;Ghana;India;Malawi;Mexico;Mozambique;Peru;Senegal;Uganda;Zambia"
World Relief;Tanzania (United Republic of);Développement;-6.3690;34.8888;https://worldrelief.org;https://worldrelief.org/give/;"Burundi;Chad;Democratic Republic of Congo;Haiti;Indonesia;Jordan;Kenya;Malawi;Rwanda;South Sudan;Sudan;Uganda;United States"
African Medical and Research Foundation;Kenya;Santé;-1.2921;36.8219;https://amref.org;https://amref.org/donate;"Ethiopia;Kenya;Malawi;South Sudan;Tanzania;Uganda;Zambia"
Education for All;Madagascar;Éducation;-18.7669;46.8691;https://www.educationforall.org;https://www.educationforall.org/donate;"Afghanistan;Bangladesh;Burkina Faso;Cambodia;Ethiopia;Ghana;Haiti;India;Kenya;Liberia;Malawi;Mali;Morocco;Mozambique;Nepal;Niger;Nigeria;Pakistan;Senegal;Sierra Leone;South Sudan;Tanzania;Uganda;Zambia"
Heifer International;Ethiopia;Agriculture;9.145;40.4897;https://www.heifer.org;https://www.heifer.org/give;"Bangladesh;Cambodia;Ecuador;Eswatini;Guatemala;Honduras;India;Kenya;Malawi;Mexico;Nepal;Rwanda;Senegal;Tanzania;Uganda;United States;Zambia;Zimbabwe"
HABITAT for Humanity;Ghana;Logement;7.9465;-1.0232;https://www.habitat.org;https://www.habitat.org/donate;"Argentina;Bangladesh;Bolivia;Brazil;Cambodia;Chile;China;Colombia;Costa Rica;Dominican Republic;Ecuador;El Salvador;Ethiopia;Ghana;Guatemala;Haiti;Honduras;India;Indonesia;Jordan;Kenya;Lebanon;Malawi;Mexico;Nepal;Nicaragua;Nigeria;Papua Guinea;Paraguay;Peru;Philippines;Romania;Rwanda;South Africa;Sri Lanka;Tanzania;Thailand;Uganda;Vietnam;Zambia;Zimbabwe"
Refugees International;Libya;Urgence;26.3351;17.2283;https://www.refugeesinternational.org;https://give.refugeesinternational.org/6uhjRjiwGUaTkvZ3by7NZA2;"Afghanistan;Bangladesh;Burkina Faso;Chad;Colombia;Democratic Republic of Congo;Ethiopia;Guatemala;Haiti;Iraq;Jordan;Kenya;Lebanon;Libya;Mali;Mexico;Myanmar;Niger;Nigeria;Pakistan;Palestine;Somalia;South Sudan;Sudan;Syria;Uganda;Ukraine;Venezuela;Yemen"
Global Health Corps;Malawi;Santé;-13.2543;34.3015;https://ghcorps.org;https://investnow.ghcorps.org/campaign/643019/donate;"Burundi;Malawi;Rwanda;Uganda;United States;Zambia"
FairTrade Africa;Kenya;Développement;-0.0236;37.9062;https://www.fairtradeafrica.net;https://donate.justgiving.com/charity/fairtrade/donation-amount;"Cameroon;Cote d’Ivoire;Democratic Republic of the Congo;Ethiopia;Ghana;Kenya;Malawi;Mozambique;Nigeria;Rwanda;South Africa;Tanzania;Uganda;Zambia;Zimbabwe"
Solidarités International;Central African Republic;Urgence;6.6111;20.9394;https://www.solidarites.org;https://dons.solidarites.org/1gen/~mon-don?_cv=1;"Afghanistan;Bangladesh;Burkina Faso;Cameroon;Central African Republic;Chad;Congo;Democratic Republic of the Congo;Ethiopia;Haiti;Lebanon;Madagascar;Mali;Mozambique;Myanmar;Niger;Nigeria;Somalia;South Sudan;Sudan;Syria;Ukraine;Yemen"
Friends of the Earth;Gabon;Environnement;-0.8037;11.6094;https://www.foei.org;https://friendsoftheearth.uk/donate/donate-today;"Argentina;Australia;Austria;Bangladesh;Belgium;Benin;Bolivia;Brazil;Burkina Faso;Cameroon;Chile;Colombia;Costa Rica;Croatia;Cuba;Czech Republic;Denmark;El Salvador;England;Fiji;Finland;France;Germany;Ghana;Guatemala;Honduras;Hungary;Indonesia;Ireland;Israel;Japan;Jordan;Korea;Lebanon;Liberia;Luxembourg;Malaysia;Malta;Mauritius;Mexico;Mozambique;Nepal;Netherlands;New Zealand;Nigeria;Norway;Palestine;Panama;Papua Guinea;Paraguay;Peru;Philippines;Poland;Scotland;Senegal;Sierra Leone;Slovakia;Slovenia;South Africa;Spain;Sri Lanka;Suriname;Swaziland;S"
Médecins Sans Frontières;;Santé;48.3794;31.1656;https://www.msf.org;https://www.msf.fr/agir/soutenir-nos-actions/faire-un-don-en-ligne;"Afghanistan;Bangladesh;Brazil;Burkina Faso;Burundi;Cambodia;Cameroon;Central African Republic;Chad;Comoros;Cote d’Ivoire;Democratic Republic of the Congo;Egypt;Ethiopia;France;Guinea;Guinea-Bissau;Haiti;India;Iran;Iraq;Italy;Jordan;Kazakhstan;Kenya;Lebanon;Liberia;Libya;Malawi;Mali;Mozambique;Niger;Nigeria;Pakistan;Palestine;Senegal;Sierra Leone;Somalia;Somaliland;South Africa;South Sudan;Sudan;Syria;Tanzania;Uganda;Ukraine;Yemen;Zimbabwe;Netherlands"
Oxfam;Kenya;Développement;-0.0236;37.9062;https://www.oxfam.org;https://give.oxfamamerica.org/page/73920/donate/1?;
CARE International;Niger;Urgence;17.6078;8.0817;https://www.care.org;https://www.care.org/donate;
Save the Children;Ethiopia;Éducation;9.145;40.4897;https://www.savethechildren.net;https://www.savethechildren.net/donate/nmm-donate-save-children-h-ga?utm_source=google&utm_medium=cpc&utm_campaign=evergreen&utm_content=sitelink_arc426&utm_term=don&gad_source=1;
Action Contre la Faim;;Nutrition;14.4974;-14.4524;https://www.actioncontrelafaim.org;https://www.actioncontrelafaim.org/s-engager/faire-un-don?;
Plan International;Cameroon;Éducation;7.3697;12.3547;https://plan-international.org;https://plan-international.org/get-involved/make-a-donation/;
World Vision;Rwanda;Développement;-1.9403;29.8739;https://www.wvi.org;https://www.wvi.org/donate?;
Handicap International;Morocco;Santé;31.7917;-7.0926;https://www.handicap-international.org;https://don.handicap-international.fr/don-hi/~mon-don?_cv=1;
UNICEF;;Enfance;20.5937;78.9629;https://www.unicef.org;https://don.unicef.fr/don-unicef/?utm_source=google&utm_medium=cpc&utm_campaign=DRTVPA_sea_20251022&utm_term=&utm_content=;
World Food Programme;Haiti;Nutrition;18.9712;-72.2852;https://www.wfp.org;https://www.wfp.org/support-us/stories/donate?utm_source=google&utm_medium=cpc&utm_campaign=15931914681&utm_content=132800584456&gclsrc=aw.ds&gad_source=1&gad_campaignid=15931914681&gbraid=0AAAAACOf4HrRXahnQ8yue7XDjbS5p__KE&gclid=Cj0KCQjwvJHIBhCgARIsAEQnWlACuGxTKyJxN_bc5SU5fI0CJzGPy1OipdwzDN1313uTw1NU9-3WfhgaAmJ4EALw_wcB;
Mercy Corps;Uganda;Développement;1.3733;32.2903;https://www.mercycorps.org;https://europe.mercycorps.org/en-gb/donate;
Islamic Relief;Sudan;Urgence;12.8628;30.2176;https://www.islamic-relief.org;https://europe.mercycorps.org/en-gb/donate;
Doctors of the World;Guinea;Santé;9.9456;-9.6966;https://www.medecinsdumonde.org;https://donate.doctorsoftheworld.org.uk/page/142795/donate/1?ea.tracking.id=tpzffpgu;
AVSI Foundation;Kenya;Éducation;-0.0236;37.9062;https://www.avsi.org;https://www.avsi.org/en/support-us/donate-now;
The Hunger Project;Benin;Développement;9.3077;2.3158;https://thp.org;https://thp.planmylegacy.org/donor-advised-funds;
World Relief;Tanzania (United Republic of);Développement;-6.3690;34.8888;https://worldrelief.org;https://worldrelief.org/give/;
Heifer International;Ethiopia;Agriculture;9.145;40.4897;https://www.heifer.org;https://www.heifer.org/give;
HABITAT for Humanity;Ghana;Logement;7.9465;-1.0232;https://www.habitat.org;https://www.habitat.org/restores/donate-goods;
Refugees International;Lebanon;Urgence;33.8547;35.8623;https://www.refugeesinternational.org;https://give.refugeesinternational.org/6uhjRjiwGUaTkvZ3by7NZA2;"Afghanistan;Bangladesh;Burkina Faso;Chad;Colombia;Democratic Republic of the Congo;Ethiopia;Guatemala;Haiti;Iraq;Jordan;Kenya;Lebanon;Libya;Mali;Mexico;Myanmar;Niger;Nigeria;Pakistan;Palestine;Somalia;South Sudan;Sudan;Syria;Uganda;Ukraine;Venezuela;Yemen"
Global Health Corps;Malawi;Santé;-13.2543;34.3015;https://ghcorps.org;https://investnow.ghcorps.org/campaign/643019/donate;
FairTrade Africa;Kenya;Développement;-0.0236;37.9062;https://www.fairtradeafrica.net;https://donate.justgiving.com/charity/fairtrade/donation-amount;
Solidarités International;Central African Republic;Urgence;6.6111;20.9394;https://www.solidarites.org;https://dons.solidarites.org/1gen/~mon-don?_cv=1;
Friends of the Earth;Brazil;Environnement;-14.235;-51.9253;https://www.foei.org;https://friendsoftheearth.uk/donate/donate-today;"Argentina;Australia;Austria;Bangladesh;Belgium;Benin;Bolivia;Brazil;Burkina Faso;Cameroon;Chile;Colombia;Costa Rica;Croatia;Cuba;Czech Republic;Denmark;El Salvador;England;Fiji;Finland;France;Germany;Ghana;Guatemala;Honduras;Hungary;Indonesia;Ireland;Israel;Japan;Jordan;Korea;Lebanon;Liberia;Luxembourg;Malaysia;Malta;Mauritius;Mexico;Mozambique;Nepal;Netherlands;New Zealand;Nigeria;Norway;Palestine;Panama;Papua Guinea;Paraguay;Peru;Philippines;Poland;Scotland;Senegal;Sierra Leone;Slovakia;Slovenia;South Africa;Spain;Sri Lanka"
Greenpeace;France;Environnement;46.2276;2.2137;https://www.greenpeace.org;https://www.greenpeace.fr/faire-un-don-a-greenpeace/;"Argentina;Australia;Austria;Bangladesh;Belgium;Brazil;Canada;Chile;China;Colombia;Croatia;Czech Republic;Denmark;Finland;France;Germany;Greece;Guatemala;Hong Kong;Hungary;India;Indonesia;Ireland;Israel;Italy;Japan;Jordan;Kenya;Korea;Luxembourg;Malaysia;Mexico;Morocco;Netherlands;New Zealand;Nigeria;Norway;Papua Guinea;Peru;Philippines;Poland;Romania;Russia;Senegal;Slovakia;Slovenia;South Africa;Spain;Sweden;Switzerland;Taiwan;Thailand;Tunisia;Turkey;Ukraine;United Kingdom;United States"
Red Cross;United States of America;Urgence;37.0902;-95.7129;https://www.redcross.org;https://www.savethechildren.net/donate/nmm-aidez-les-enfants-en-situation-de-crise?utm_source=pmax&utm_medium=display&utm_campaign=gaza&utm_content=gazasoraya_fr_pplow_arc582&utm_term=don&gad_source=1;
Amnesty International;Spain;Droits humains;40.4637;-3.7492;https://www.amnesty.org;https://soutenir.amnesty.fr/agir-contre-les-injustices/~mon-don?ns_ira_cr_arg=IyMjIyMjIyMjIyMjIyMjIyMjIyMjIyMjIyMjIyMjIyNaokUiBC11xlo29R1ayQzfpcAMbTlzTGQ%2BXaE3jOWgW6gE%2F8GO%2F%2F%2Ff6M2RdtCk%2BhX%2F7wQu5VjZBXqQGVDBegNjOl8N2nVz9N2wV7WFmnhN2FbwFPNEwjJ5eydSX%2B2wbyBDjtCmflVmn5g63FOiTC%2FrwQez2Qya%2FQpiJlzyt6KRJOSdv4cDQ6JuVGoXF1q71E9sQ2%2Br3xTdFQFZ5VIOrIraWuRfYLeLgNIqbsYs5fOjWpIoHgkMAGhUonmknoUXgEXF5aWTSIygeQKgpt%2FyPwFpWPQ%2Fa6EThJCEGPSJT0tZiCnsag%2FfZk4ZYEo8EbsICA7Ih7D%2BTT4b0SXD4LZtAzFMLpvW9ZGNVOjkqCT6y6XaOwlF2nxOKweTvAqrbHSdEy5aXoFnnnU0QaKN8sooBex8CFoczKDOILmkEtTBw0QgNWrqFSPbt4OuSzWwFR72Ig5IWSjIRofivQr9wH%2FrApLjq1R0wdG0ECWaTZmViH0YiQ9ZcpBrnanh8c0fUmaBjg0ONu4Z%2FXiFLUMBO4f1cS2OmU7WrGegrptcgmNsgxSRpw%3D%3D&utm_source=google&utm_medium=cpc&utm_campaign=Search+-+PA+FR+2025+-+Marque&utm_content=191171689331&utm_term=amnesty+international+don&gad_source=1&gad_campaignid=23029046089&gbraid=0AAAAADlv-D3G6O8wv1Jq2hflXIP5UnFKH&gclid=Cj0KCQjwvJHIBhCgARIsAEQnWlBO4WSvbjSZVeGzuagY8YAhnIeNRSKPmuPw_7in9qYFcpLGOUlFALkaAo-dEALw_wcB&_cv=1#;"Argentina;Australia;Austria;Bangladesh;Belgium;Benin;Bolivia;Brazil;Burkina Faso;Canada;Chile;China;Colombia;Costa Rica;Czech Republic;Denmark;Ecuador;Egypt;Finland;France;Germany;Ghana;Greece;Guatemala;Honduras;Hong Kong;Hungary;India;Indonesia;Ireland;Israel;Italy;Japan;Kenya;Korea;Lebanon;Luxembourg;Malaysia;Malta;Mexico;Morocco;Nepal;Netherlands;New Zealand;Nigeria;Norway;Pakistan;Palestine;Paraguay;Peru;Philippines;Poland;Portugal;Senegal;Slovakia;Slovenia;South Africa;Spain;Sri Lanka;Sweden;Switzerland;Taiwan;Thailand;Tunisia;Turkey;Ukraine;United Kingdom;United States;Venezuela"
WWF;South Africa;Environnement;-30.5595;22.9375;https://www.wwf.org;https://faireundon.wwf.fr/don/~mon-don;"Argentina;Australia;Austria;Bangladesh;Belgium;Bhutan;Bolivia;Brazil;Cambodia;Cameroon;Canada;Chile;China;Colombia;Costa Rica;Croatia;Czech Republic;Denmark;Ecuador;Egypt;Finland;France;Germany;Ghana;Greece;Guatemala;Honduras;Hong Kong;Hungary;India;Indonesia;Ireland;Italy;Japan;Kenya;Korea;Laos;Latvia;Liberia;Luxembourg;Madagascar;Malaysia;Mexico;Mongolia;Morocco;Mozambique;Myanmar;Namibia;Nepal;Netherlands;New Zealand;Nigeria;Norway;Pakistan;Panama;Papua Guinea;Paraguay;Peru;Philippines;Poland;Portugal;Romania;Russia;Senegal;Singapore;Slovakia;Slovenia;South Africa;Spain;Sri Lanka;Sweden;Switzerland;Tanzania;Thailand;Tunisia;Turkey;Uganda;Ukraine;United Arab Emirates;United Kingdom;United States;Viet Nam;Zambia;Zimbabwe"
Doctors Without Borders;France;Santé;12.8797;121.774;https://www.msf.org;https://give.doctorswithoutborders.org/campaign/675296/donate?_gl=1*16bocpm*_gcl_au*MTI3NzAyNTUwMS4xNzYxOTE5NDU1*_ga*MTI0Mjg1NDI3NC4xNzYxOTE5NDU1*_ga_C7EW6Q0J9K*czE3NjE5MTk0NTUkbzEkZzAkdDE3NjE5MTk0NTUkajYwJGwwJGgw;"Afghanistan;Bangladesh;Brazil;Burkina Faso;Burundi;Cambodia;Cameroon;Central African Republic;Chad;Comoros;Cote d’Ivoire;Democratic Republic of the Congo;Egypt;Ethiopia;France;Guinea;Guinea-Bissau;Haiti;India;Iran;Iraq;Italy;Jordan;Kazakhstan;Kenya;Lebanon;Liberia;Libya;Malawi;Mali;Mozambique;Niger;Nigeria;Pakistan;Palestine;Senegal;Sierra Leone;Somalia;Somaliland;South Africa;South Sudan;Sudan;Syria;Tanzania;Uganda;Ukraine;Yemen;Zimbabwe;Netherlands"
World Wildlife Fund;China;Environnement;35.8617;104.1954;https://www.worldwildlife.org;https://faireundon.wwf.fr/don/~mon-don;"Argentina;Australia;Austria;Bangladesh;Belgium;Bhutan;Bolivia;Brazil;Cambodia;Cameroon;Canada;Chile;China;Colombia;Costa Rica;Croatia;Czech Republic;Denmark;Ecuador;Egypt;Finland;France;Germany;Ghana;Greece;Guatemala;Honduras;Hong Kong;Hungary;India;Indonesia;Ireland;Italy;Japan;Kenya;Korea;Laos;Latvia;Liberia;Luxembourg;Madagascar;Malaysia;Mexico;Mongolia;Morocco;Mozambique;Myanmar;Namibia;Nepal;Netherlands;New Zealand;Nigeria;Norway;Pakistan;Panama;Papua Guinea;Paraguay;Peru;Philippines;Poland;Portugal;Romania;Russia;Senegal;Singapore;Slovakia;Slovenia;South Africa;Spain;Sri Lanka;Sweden;Switzerland;Tanzania;Thailand;Tunisia;Turkey;Uganda;Ukraine;United Arab Emirates;United Kingdom;United States;Viet Nam;Zambia;Zimbabwe"
Caritas Internationalis;Italy;Développement;41.8719;12.5674;https://www.caritas.org;https://www.caritas.org/faites-un-don/?lang=fr;"Afghanistan;Albania;Algeria;Angola;Argentina;Armenia;Bangladesh;Belarus;Benin;Bolivia;Bosnia;Brazil;Burkina Faso;Burundi;Cambodia;Cameroon;Central African Republic;Chad;Chile;China;Colombia;Congo;Costa Rica;Cote d’Ivoire;Croatia;Cuba;Cyprus;Democratic Republic of the Congo;Dominican Republic;Ecuador;Egypt;El Salvador;Ethiopia;France;Gabon;Gambia;Ghana;Guatemala;Guinea;Haiti;Honduras;India;Indonesia;Iraq;Israel;Italy;Jordan;Kenya;Lebanon;Liberia;Libya;Madagascar;Malawi;Mali;Mexico;Morocco;Mozambique;Myanmar;Nepal;Nicaragua;Niger;Nigeria;Pakistan;Palestine;Panama;Paraguay;Peru;Philippines;Poland;Portugal;Rwanda;Senegal;Sierra Leone;Somalia;South Africa;South Sudan;Sri Lanka;Sudan;Syria;Tanzania;Thailand;Togo;Tunisia;Turkey;"
GlobalGiving;United States of America;Développement;37.0902;-95.7129;https://www.globalgiving.org;https://www.globalgiving.org/search/?size=25&nextPage=1&sortField=sortorder&loadAllResults=true;"Afghanistan;Albania;Algeria;Argentina;Armenia;Bangladesh;Belize;Benin;Bolivia;Bosnia;Botswana;Brazil;Bulgaria;Burkina Faso;Burundi;Cambodia;Cameroon;Chile;China;Colombia;Costa Rica;Cote d’Ivoire;Croatia;Cuba;Democratic Republic of the Congo;Dominican Republic;Ecuador;Egypt;El Salvador;Ethiopia;Fiji;France;Gabon;Gambia;Ghana;Greece;Guatemala;Guinea;Guyana;Haiti;Honduras;Hungary;India;Indonesia;Iran;Iraq;Israel;Italy;Jamaica;Japan;Jordan;Kenya;Kosovo;Kyrgyzstan;Laos;Lebanon;Lesotho;Liberia;Madagascar;Malawi;Malaysia;Mali;Mexico;Moldova;Mongolia;Morocco;Mozambique;Myanmar;Namibia;Nepal;Nicaragua;Niger;Nigeria;Pakistan;Palestine;Panama;Papua Guinea;Paraguay;Peru;Philippines;Poland;Romania;Rwanda;Senegal;Serbia;Sierra Leone;Singapore;Somalia;South Africa;South Sudan;Sri Lanka;Sudan;Tanzania;Thailand;Togo;Tunisia;Turkey;Uganda;Ukraine;Uruguay;Venezuela;Vietnam;Zambia;Zimbabwe"
Operation Smile;Egypt;Santé;26.8206;30.8025;https://www.operationsmile.org;https://secure.operationsmile.org/site/Donation;"Bolivia;Brazil;Cambodia;China;Colombia;Democratic Republic of the Congo;Dominican Republic;Egypt;Ethiopia;Ghana;Guatemala;Honduras;India;Italy;Jordan;Kenya;Madagascar;Malawi;Mexico;Morocco;Mozambique;Nicaragua;Panama;Papua Guinea;Paraguay;Peru;Philippines;Rwanda;South Africa;Thailand;Viet Nam;Vietnam;Zambia;Zimbabwe"
Room to Read;Nepal;Éducation;28.3949;84.124;https://www.roomtoread.org;https://www.roomtoread.org/donate/;"Bangladesh;Cambodia;India;Indonesia;Laos;Myanmar;Nepal;South Africa;Sri Lanka;Tanzania;Vietnam"
WaterAid;Bangladesh;Eau;23.685;90.3563;https://www.wateraid.org;https://www.wateraid.org/donate?;"Bangladesh;Burkina Faso;Cambodia;Ethiopia;Ghana;India;Madagascar;Malawi;Mozambique;Myanmar;Nepal;Nicaragua;Niger;Nigeria;Pakistan;Papua Guinea;Rwanda;Sierra Leone;Tanzania;Uganda;Zambia"
Human Rights Watch;Canada;Droits humains;56.1304;-106.3468;https://www.hrw.org;https://donate.hrw.org/page/119043/donate/1?locale=fr-FR;"Afghanistan;Albania;Algeria;Angola;Argentina;Armenia;Australia;Austria;Azerbaijan;Bahrain;Bangladesh;Belarus;Belgium;Bolivia;Bosnia;Brazil;Bulgaria;Burundi;Cambodia;Cameroon;Canada;Central African Republic;Chad;Chile;China;Colombia;Congo;Costa Rica;Cote d’Ivoire;Croatia;Cuba;Cyprus;Democratic Republic of the Congo;Denmark;Dominican Republic;Ecuador;Egypt;El Salvador;Eritrea;Estonia;Ethiopia;Finland;France;Gabon;Gambia;Georgia;Germany;Ghana;Greece;Guatemala;Guinea;Haiti;Honduras;Hong Kong;Hungary;India;Indonesia;Iran;Iraq;Ireland;Israel;Italy;Japan;Jordan;Kazakhstan;Kenya;Kuwait;Kyrgyzstan;Laos;Latvia;Lebanon;Liberia;Libya;Lithuania;Luxembourg;Madagascar;Malawi;Malaysia;Mali;Mauritania;Mexico;Moldova;Mongolia;Morocco;Mozambique;Myanmar;Namibia;Nepal;Netherlands;New Zealand;Nicaragua;Niger;Nigeria;North Korea;Norway;Paki"
Save the Rhino;Tanzania (United Republic of);Environnement;-6.3690;34.8888;https://www.savetherhino.org;https://www.savetherhino.org/get-involved/donate/;"Kenya;Namibia;South Africa;Tanzania;Uganda;Zambia;Zimbabwe;Indonesia;India;Laos;Malaysia;Nepal;Vietnam"
Rotary International;Switzerland;Développement;46.8182;8.2275;https://www.rotary.org;https://www.google.com/url?sa=t&source=web&rct=j&opi=89978449&url=https://www.rotary.org/fr/get-involved/ways-to-give&ved=2ahUKEwiklJip2s6QAxWaUKQEHeyHImkQFnoECBcQAQ&usg=AOvVaw2qSAk27Q2JWadbCUvdEfHc;"Argentina;Australia;Austria;Bangladesh;Belgium;Bolivia;Brazil;Bulgaria;Cambodia;Cameroon;Canada;Chile;China;Colombia;Costa Rica;Croatia;Czech Republic;Denmark;Dominican Republic;Ecuador;Egypt;El Salvador;Ethiopia;Finland;France;Germany;Ghana;Greece;Guatemala;Honduras;Hong Kong;Hungary;Iceland;India;Indonesia;Ireland;Israel;Italy;Japan;Jordan;Kenya;Korea;Lebanon;Luxembourg;Malaysia;Malta;Mexico;Morocco;Mozambique;Nepal;Netherlands;New Zealand;Nigeria;Norway;Pakistan;Panama;Paraguay;Peru;Philippines;Poland;Portugal;Romania;Russia;Senegal;Serbia;Sierra Leone;Singapore;Slovakia;Slovenia;South Africa;Spain;Sri Lanka;Sweden;Switzerland;Taiwan;Tanzania;Thailand;Tunisia;Turkey;Uganda;Ukraine;United Arab Emirates;United Kingdom;United States;Uruguay;Venezuela;Vietnam;Zambia;Zimbabwe"
Food for the Poor;Haiti;Nutrition;18.9712;-72.2852;https://www.foodforthepoor.org;https://foodforthepoor.org/?form=donate-now&s_subsrc=topright&modifyAmount=yes;"Antigua and Barbuda;Bahamas;Barbados;Belize;Dominica;Dominican Republic;El Salvador;Grenada;Guatemala;Guyana;Haiti;Honduras;Jamaica;Saint Kitts and Nevis;Saint Lucia;Saint Vincent and the Grenadines;Trinidad and Tobago"
Crisis Action;France;Droits humains;46.2276;2.2137;https://crisisaction.org;https://donorbox.org/help-protect-civilians-in-conflict;"Afghanistan;Burma;Central African Republic;Democratic Republic of the Congo;Ethiopia;Mali;Palestine;Somalia;South Sudan;Sudan;Syria;Ukraine;Yemen" 
Transparency International;Germany;Droits humains;51.1657;10.4515;https://www.transparency.org;;"Afghanistan;Albania;Algeria;Angola;Argentina;Armenia;Australia;Austria;Azerbaijan;Bangladesh;Belarus;Belgium;Benin;Bolivia;Bosnia;Botswana;Brazil;Bulgaria;Burkina Faso;Burundi;Cambodia;Cameroon;Canada;Chile;China;Colombia;Costa Rica;Cote d’Ivoire;Croatia;Cyprus;Czech Republic;Denmark;Dominican Republic;Ecuador;Egypt;El Salvador;Estonia;Ethiopia;Finland;France;Georgia;Germany;Ghana;Greece;Guatemala;Guinea;Haiti;Honduras;Hong Kong;Hungary;Iceland;India;Indonesia;Ireland;Israel;Italy;Japan;Jordan;Kazakhstan;Kenya;Kosovo;Kyrgyzstan;Latvia;Lebanon;Liberia;Lithuania;Luxembourg;Madagascar;Malawi;Malaysia;Mali;Malta;Mauritania;Mexico;Moldova;Mongolia;Morocco;Mozambique;Myanmar;Namibia;Nepal;Netherlands;New Zealand;Nicaragua;Niger;Nigeria;North Macedonia;Norway;Pakistan;Palestine;Panama;Papua Guinea;Paraguay;Peru;Philippines;Poland;Portugal;Romania;Russia;Rwanda;Senegal;Serbia;Sierra Leone;Singapore;Slovakia;Slovenia;South Africa;South Korea;Spain;Sri Lanka;Sudan;Sweden;Switzerland;Syria;Tanzania;Thailand;Togo;Tunisia;Turkey;Uganda;Ukraine;United Kingdom;United States;Uruguay;Venezuela;Vietnam;Zambia;Zimbabwe"
Human Appeal;Palestine, State of;Santé;31.9522;35.2332;https://humanappeal.org.uk;https://humanappeal.fr/faire-un-don?gad_source=1&gad_campaignid=20073571846&gbraid=0AAAAApW6xf8UZ6mjbhBli4O2rMO-nKhgs&gclid=Cj0KCQjwvJHIBhCgARIsAEQnWlCXwsXOD8H8qGhmnN3Bsodxo-0B5m8AvYxV_A0MxoAi5sW8-ZVIvKsaAjJEEALw_wcB;"Afghanistan;Bangladesh;Bosnia;Chad;Ethiopia;Gaza;India;Iraq;Jordan;Kenya;Lebanon;Libya;Malawi;Mali;Morocco;Niger;Nigeria;Pakistan;Palestine;Somalia;South Sudan;Sudan;Syria;Tanzania;Tunisia;Turkey;Yemen"
World Literacy Foundation;Australia;Éducation;-25.2744;133.7751;https://worldliteracyfoundation.org;;"Australia;Colombia;Ghana;Malawi;Uganda;United Kingdom;United States"
One Acre Fund;Rwanda;Agriculture;-1.9403;29.8739;https://oneacrefund.org;https://oneacrefund.org/donate;"Burundi;Ethiopia;Kenya;Malawi;Nigeria;Rwanda;Tanzania;Uganda;Zambia"
BRAC;Bangladesh;Développement;23.685;90.3563;https://www.brac.net;https://donate.brac.net/cybs/web/live/;"Afghanistan;Bangladesh;Liberia;Myanmar;Nepal;Philippines;Rwanda;Sierra Leone;South Sudan;Tanzania;Uganda"
Concern Worldwide;Ireland;Urgence;53.4129;-8.2439;https://www.concern.net;https://www.concern.net/donate/general;"Afghanistan;Bangladesh;Burundi;Central African Republic;Chad;Democratic Republic of the Congo;Ethiopia;Haiti;Kenya;Lebanon;Liberia;Malawi;Mozambique;Niger;Rwanda;Sierra Leone;Somalia;South Sudan;Sudan;Syria;Tanzania;Turkey;Yemen"
Wildlife Conservation Society;United States of America;Environnement;37.0902;-95.7129;https://www.wcs.org;https://secure.wcs.org/donate/save-wildlife?ms=M_WEB_DON_01_F07_2204-DON-homepage++;"Afghanistan;Argentina;Belize;Bolivia;Botswana;Brazil;Cambodia;Cameroon;Chile;China;Colombia;Congo;Democratic Republic of the Congo;Ecuador;Fiji;Gabon;Guatemala;Guyana;India;Indonesia;Kenya;Laos;Madagascar;Malaysia;Mongolia;Mozambique;Myanmar;Namibia;Nepal;Nicaragua;Papua Guinea;Peru;Republic of the Congo;Rwanda;South Sudan;Tanzania;Uganda;United States;Viet Nam;Zambia"
;;;;;;;
Relief International;Lebanon;Urgence;33.8547;35.8623;https://www.ri.org;https://www.ri.org/donate/;"Afghanistan;Bangladesh;Iran;Iraq;Jordan;Lebanon;Myanmar;Pakistan;Philippines;South Sudan;Sudan;Syria;Turkey;Yemen"
CARE Japan;Japan;Urgence;36.2048;138.2529;https://www.care.org;https://www.care.org/donate;
Doctors Without Borders;Colombia;Santé;4.5709;-74.2973;https://www.msf.org;https://give.doctorswithoutborders.org/campaign/675296/donate?_gl=1*16bocpm*_gcl_au*MTI3NzAyNTUwMS4xNzYxOTE5NDU1*_ga*MTI0Mjg1NDI3NC4xNzYxOTE5NDU1*_ga_C7EW6Q0J9K*czE3NjE5MTk0NTUkbzEkZzAkdDE3NjE5MTk0NTUkajYwJGwwJGgw;
War Child;Afghanistan;Enfance;33.9391;67.7100;https://www.warchild.org;https://www.warchild.net/donate/;"Afghanistan;Central African Republic;Democratic Republic of the Congo;Iraq;Jordan;Lebanon;South Sudan;Sudan;Syria;Uganda;Ukraine;Yemen"
Good Neighbors;South Korea;Développement;35.9078;127.7669;https://www.goodneighbors.org;https://www.goodneighbors.org/donate/;"Bangladesh;Cambodia;Chad;Ethiopia;Guatemala;Haiti;India;Indonesia;Kenya;Laos;Malawi;Mongolia;Mozambique;Myanmar;Nicaragua;Niger;Philippines;Rwanda;South Sudan;Sri Lanka;Tanzania;Uganda;Vietnam"
Save the Children;Indonesia;Éducation;-0.7893;113.9213;https://www.savethechildren.net;https://www.savethechildren.net/donate/nmm-donate-save-children-h-ga?utm_source=google&utm_medium=cpc&utm_campaign=evergreen&utm_content=sitelink_arc426&utm_term=don&gad_source=1;"Afghanistan;Albania;Angola;Argentina;Australia;Bangladesh;Bhutan;Bolivia;Bosnia;Brazil;Bulgaria;Burkina Faso;Cambodia;China;Colombia;Cote d’Ivoire;Democratic Republic of the Congo;Denmark;Dominican Republic;Ecuador;Egypt;El Salvador;Ethiopia;Ghana;Guatemala;Haiti;Honduras;India;Indonesia;Iraq;Italy;Japan;Jordan;Kazakhstan;Kenya;Kosovo;Laos;Lebanon;Liberia;Madagascar;Malawi;Mali;Mexico;Mozambique;Myanmar;Nepal;Nicaragua;Niger;Nigeria;Pakistan;Palestine;Peru;Philippines;Romania;Rwanda;Sierra Leone;Solomon Islands;Somalia;South Sudan;Sudan;Syria;Tanzania;Thailand;Timor Leste;Uganda;Ukraine;Vanuatu;Vietnam;Yemen;Zambia;Zimbabwe"
Norwegian Refugee Council;Norway;Urgence;60.4720;8.4689;https://www.nrc.no;https://support.nrc.no/give-today/?frequency=Both&frequencydefault=Monthly&amountgroup=medium&3=&channel=Web&campaignid=&utm_source=header&utm_medium=Web&_gl=1*9qmwb0*_gcl_au*MTQ5ODg2NzgwMy4xNzYxOTIzMzMz;"Afghanistan;Bangladesh;Burkina Faso;Cameroon;Central African Republic;Chad;Colombia;Democratic Republic of the Congo;Ecuador;Ethiopia;Iraq;Jordan;Kenya;Lebanon;Libya;Mali;Myanmar;Niger;Nigeria;Palestine;Somalia;South Sudan;Sudan;Syria;Ukraine;Venezuela;Yemen"
Finn Church Aid;Finland;Éducation;61.9241;25.7482;https://www.kirkonulkomaanapu.fi;https://www.kirkonulkomaanapu.fi/en/donate/;"Central African Republic;Democratic Republic of the Congo;Ethiopia;Kenya;Myanmar;Nepal;Palestine;Somalia;South Sudan;Syria;Uganda;Ukraine"
People in Need;Czechia;Développement;49.8175;15.4730;https://www.peopleinneed.net;https://www.peopleinneed.net/donate/once;"Afghanistan;Angola;Armenia;Bosnia;Cambodia;Ethiopia;Georgia;Iraq;Moldova;Mongolia;Myanmar;Nepal;Philippines;Serbia;Slovakia;Syria;Ukraine;Yemen"
Aide et Action;France;Éducation;46.2276;2.2137;https://www.aide-et-action.org;https://soutenir.action-education.org/flr/?utm_source=google&utm_medium=cpc&utm_campaign=marque-fr&utm_content=lien-annexe-marque-pure&utm_term=ong+aide+et+action&source_acquisition=WEB-25-FLR&gad_source=1&gad_campaignid=22488124712&gbraid=0AAAAADjW7MB-6JSmBEF2S7rrwx4d7RITi&gclid=Cj0KCQjwvJHIBhCgARIsAEQnWlDO3qQmWX2SqEo6O3FhbZXNE7uJiPREA5N4jZa-UQcKfQUfwNc8-_UaAjj9EALw_wcB;"Benin;Burkina Faso;Cambodia;Democratic Republic of the Congo;Guinea;Haiti;India;Laos;Madagascar;Mali;Nepal;Niger;Senegal;Togo;Vietnam"
SolidarityNow;Greece;Droits humains;39.0742;21.8243;https://www.solidaritynow.org;https://www.solidaritynow.org/en/donation/;"Greece;Ukraine"
Terre des Hommes;Switzerland;Enfance;46.8182;8.2275;https://www.tdh.ch;https://www.tdh.org/fr/engagement/donner;"Albania;Bangladesh;Bolivia;Burkina Faso;Colombia;Ecuador;Guinea;India;Jordan;Lebanon;Mauritania;Mozambique;Nepal;Niger;Nigeria;Pakistan;Palestine;Peru;Senegal;Sierra Leone;Sri Lanka;Syria;Tanzania;Uganda"
ACTED;France;Urgence;46.2276;2.2137;https://www.acted.org;https://acted.iraiser.eu/don/~mon-don?_cv=1;"Afghanistan;Bangladesh;Burkina Faso;Cameroon;Central African Republic;Chad;Colombia;Democratic Republic of the Congo;Ethiopia;Haiti;Iraq;Jordan;Kenya;Lebanon;Libya;Mali;Mozambique;Myanmar;Niger;Nigeria;Palestine;Somalia;South Sudan;Sudan;Syria;Turkey;Ukraine;Yemen"
Christian Aid;United Kingdom;Développement;55.3781;-3.4360;https://www.christianaid.org.uk;https://www.christianaid.org.uk/give;"Afghanistan;Bangladesh;Burundi;Colombia;Democratic Republic of the Congo;Ethiopia;El Salvador;Guatemala;Honduras;India;Ireland;Kenya;Malawi;Myanmar;Nepal;Nicaragua;Sierra Leone;South Sudan;Sudan;Zimbabwe"
CAFOD;United Kingdom;Développement;55.3781;-3.4360;https://www.cafod.org.uk;https://cafod.org.uk/?form=harvest25;"Afghanistan;Bangladesh;Brazil;Cambodia;Colombia;Democratic Republic of the Congo;Ethiopia;Honduras;Kenya;Lebanon;Liberia;Myanmar;Nicaragua;Niger;Nigeria;Palestine;Peru;Sierra Leone;South Sudan;Sudan;Syria;Uganda;Zambia;Zimbabwe"
Zakat Foundation of America;United States of America;Humanitaire;37.0902;-95.7129;https://www.zakat.org;https://www.google.com/url?sa=t&source=web&rct=j&opi=89978449&url=https://donate.zakat.org/&ved=2ahUKEwilgaLl-86QAxWFpCcCHfu9MnUQjBB6BAgYEAE&usg=AOvVaw1x9WPL5RrjAy_jzHTIvy9v;"Afghanistan;Bangladesh;Bosnia;Burkina Faso;Chad;Ethiopia;Ghana;Haiti;India;Indonesia;Jordan;Kenya;Lebanon;Liberia;Malawi;Mali;Morocco;Nepal;Niger;Nigeria;Pakistan;Palestine;Philippines;Somalia;South Africa;South Sudan;Sudan;Syria;Tanzania;Turkey;Uganda;Yemen;Zambia"
Human Rights Without Frontiers;Belgium;Droits humains;50.5039;4.4699;https://hrwf.eu;;"Albania;Algeria;Armenia;Azerbaijan;Belarus;Belgium;Bosnia;Bulgaria;China;Cuba;Egypt;Ethiopia;France;India;Indonesia;Iran;Iraq;Kazakhstan;Kenya;Kyrgyzstan;Laos;Lebanon;Libya;Mexico;Moldova;Morocco;Myanmar;Nepal;Nigeria;North Korea;Pakistan;Palestine;Philippines;Qatar;Russia;Saudi Arabia;Sri Lanka;Sudan;Syria;Tajikistan;Tunisia;Turkey;Turkmenistan;Uganda;Ukraine;Uzbekistan;Vietnam;Yemen"
Solidarité Laïque;France;Éducation;46.2276;2.2137;https://www.solidarite-laique.org;https://soutenir.solidarite-laique.org/b/mon-don?cid=1&_cv=1;"Albania;Burkina Faso;Chad;Colombia;Comoros;Democratic Republic of the Congo;France;Guinea;Haiti;Lebanon;Madagascar;Mali;Morocco;Niger;Senegal;Togo;Tunisia"
Médecins du Monde;Spain;Santé;40.4637;-3.7492;https://www.medicosdelmundo.org;https://www.medecinsdumonde.org/nous-soutenir/;
CARE Canada;Canada;Urgence;56.1304;-106.3468;https://care.ca;https://www.care.org/donate;
World Hope International;Sierra Leone;Développement;8.4606;-11.7799;https://www.worldhope.org;https://worldhope.org/give/;"Cambodia;Haiti;Liberia;Malawi;Philippines;Sierra Leone;Zambia"
GAVI Alliance;Switzerland;Santé;46.8182;8.2275;https://www.gavi.org;;"Afghanistan;Angola;Bangladesh;Benin;Burkina Faso;Burundi;Cambodia;Cameroon;Central African Republic;Chad;Comoros;Congo;Democratic Republic of the Congo;Cote d’Ivoire;Djibouti;Eritrea;Ethiopia;Gambia;Ghana;Guinea;Guinea Bissau;Haiti;India;Kenya;Kyrgyzstan;Lao;Lesotho;Liberia;Madagascar;Malawi;Mali;Mauritania;Mozambique;Myanmar;Nepal;Nicaragua;Niger;Nigeria;Pakistan;Papua Guinea;Rwanda;Sao Tome and Principe;Senegal;Sierra Leone;Solomon Islands;Somalia;South Sudan;Sudan;Tajikistan;Tanzania;Timor Leste;Togo;Uganda;Yemen;Zambia;Zimbabwe"
FHI 360;United States of America;Développement;37.0902;-95.7129;https://www.fhi360.org;;"Afghanistan;Bangladesh;Cambodia;Cameroon;Democratic Republic of the Congo;Dominican Republic;Ethiopia;Ghana;Guatemala;Haiti;India;Indonesia;Kenya;Laos;Liberia;Malawi;Mozambique;Myanmar;Namibia;Nepal;Nicaragua;Nigeria;Pakistan;Papua Guinea;Philippines;Rwanda;Senegal;Sierra Leone;South Africa;South Sudan;Tanzania;Thailand;Uganda;Ukraine;Vietnam;Zambia;Zimbabwe"
International Rescue Committee;Iraq;Urgence;33.2232;43.6793;https://www.rescue.org;https://help.rescue.org/donate-mc/help-refugees-euro?ms=ws_resq_top_nav_btn_fy25_gen_unres_nm_may&initialms=ws_resq_top_nav_btn_fy25_gen_unres_nm_may&ref=https%3A%2F%2Fwww.rescue.org%2Feu;"Afghanistan;Burundi;Cameroon;Central African Republic;Chad;Colombia;Cote d’Ivoire;Democratic Republic of the Congo;Ecuador;Ethiopia;Greece;Haiti;Iraq;Jordan;Kenya;Lebanon;Liberia;Libya;Mali;Myanmar;Niger;Nigeria;Pakistan;Palestine;Poland;Sierra Leone;Somalia;South Sudan;Sudan;Syria;Thailand;Uganda;Ukraine;Venezuela;Yemen"
Hope for Haiti;Haiti;Développement;18.9712;-72.2852;https://hopeforhaiti.com;https://give.hopeforhaiti.com/campaign/739906/donate;Haiti
Relief International;Sudan;Urgence;12.8628;30.2176;https://www.ri.org;https://www.ri.org/donate/;"Afghanistan;Bangladesh;Iran;Iraq;Jordan;Lebanon;Myanmar;Pakistan;Philippines;South Sudan;Sudan;Syria;Turkey;Yemen"
Food for the Hungry;Kenya;Nutrition;-0.0236;37.9062;https://www.fh.org;https://give.fh.org/s/gift-catalog?campaignId=701TR00000gotLpYAI&utm_campaign=dig-gift-catalog&utm_medium=web&utm_source=button&utm_content=homepage3gifts&page=1;"Bangladesh;Bolivia;Burundi;Cambodia;Democratic Republic of the Congo;Dominican Republic;Ethiopia;Guatemala;Haiti;Indonesia;Kenya;Mozambique;Nicaragua;Peru;Philippines;Rwanda;South Sudan;Uganda"
World Animal Protection;Netherlands;Environnement;52.1326;5.2913;https://www.worldanimalprotection.org;https://www.worldanimalprotection.org/support-us/donate/;"Australia;Brazil;Canada;China;Denmark;India;Kenya;Netherlands;New Zealand;Sweden;Thailand;United Kingdom;United States"
Concern Universal;Mozambique;Développement;-18.6657;35.5296;https://www.concernuniversal.org;https://www.concern.net/donate;"Bangladesh;Brazil;Ethiopia;Gambia;Kenya;Malawi;Mozambique;Nigeria;Senegal;Uganda"
Global Water Partnership;Sweden;Eau;60.1282;18.6435;https://www.gwp.org;;"Albania;Algeria;Angola;Argentina;Armenia;Bangladesh;Benin;Bhutan;Bolivia;Botswana;Brazil;Bulgaria;Burkina Faso;Burundi;Cambodia;Cameroon;Cape Verde;Central African Republic;Chad;Chile;China;Colombia;Congo;Costa Rica;Cote d’Ivoire;Croatia;Cuba;Cyprus;Czech Republic;Democratic Republic of the Congo;Denmark;Dominican Republic;Ecuador;Egypt;El Salvador;Estonia;Ethiopia;Fiji;Finland;France;Gabon;Gambia;Georgia;Germany;Ghana;Greece;Guatemala;Guinea;Guinea Bissau;Guyana;Haiti;Honduras;Hungary;Iceland;India;Indonesia;Iran;Iraq;Ireland;Israel;Italy;Jamaica;Japan;Jordan;Kazakhstan;Kenya;Kyrgyzstan;Laos;Latvia;Lebanon;Lesotho;Liberia;Libya;Lithuania;Luxembourg;Madagascar;Malawi;Malaysia;Mali;Malta;Mauritania;Mauritius;Mexico;Moldova;Mongolia;Montenegro;Morocco;Mozambique;Myanmar;Namibia;Nepal;Netherlands;New Zealand;Nicaragua;Niger;Nigeria;North Macedonia;Norway;Pakistan;Palestine;Panama;Papua Guinea;Paraguay;Peru;Philippines;Poland;Portugal;Qatar;Romania;Russia;Rwanda;Saudi Arabia;Senegal;Serbia;Sierra Leone;Singapore;Slovakia;Slovenia;Somalia;South Africa;South Sudan;Spain;Sri Lanka;Sudan;Suriname;Sweden;Switzerland;Syria;Tanzania;Thailand;Togo;Trinidad;Tunisia;Turkey;Uganda;Ukraine;United Arab Emirates;United Kingdom;United States;Uruguay;Uzbekistan;Venezuela;Vietnam;Yemen;Zambia;Zimbabwe"
CARE India;India;Urgence;20.5937;78.9629;https://www.careindia.org;https://www.care.org/donate;India
Relief International;Yemen;Urgence;15.5527;48.5164;https://www.ri.org;https://www.ri.org/donate/;
ChildFund International;Viet Nam;Éducation;14.0583;108.2772;https://www.childfund.org;https://www.childfund.org/campaigns/august25/village/;"Brazil;Bolivia;Ecuador;Guatemala;Honduras;India;Indonesia;Kenya;Laos;Mexico;Mozambique;Philippines;Sierra Leone;Sri Lanka;Uganda;Vietnam;Zambia"
BuildOn;United States of America;Éducation;37.0902;-95.7129;https://www.buildon.org;https://www.buildon.org/get-involved-2/faire-un-don?lang=fr;"Burkina Faso;Guatemala;Haiti;Malawi;Nicaragua;Nepal;Senegal"
Habitat for Humanity;Philippines;Logement;12.8797;121.774;https://www.habitat.org;https://www.habitat.org/restores/donate-goods;"Argentina;Bangladesh;Bolivia;Brazil;Cambodia;Chile;China;Colombia;Costa Rica;Dominican Republic;Ecuador;El Salvador;Ethiopia;Ghana;Guatemala;Haiti;Honduras;India;Indonesia;Jordan;Kenya;Lebanon;Malawi;Mexico;Nepal;Nicaragua;Nigeria;Papua Guinea;Paraguay;Peru;Philippines;Romania;Rwanda;South Africa;Sri Lanka;Tanzania;Thailand;Uganda;Vietnam;Zambia;Zimbabwe"
SOS Villages d’Enfants;Brazil;Enfance;-14.235;-51.9253;https://www.sos-childrensvillages.org;https://www.sosve.org/faire-un-don-regulier/?_gl=1*1f5nme5*_up*MQ..*_gs*MQ..&gclid=Cj0KCQjwvJHIBhCgARIsAEQnWlAg2SzaRKYkScfhFuOEm_DJ29wKA9CO79zkDPF9aCbfabw8dqJO-vEaAudPEALw_wcB&gbraid=0AAAAADbu7247dp9Qc2QFe5K3xjTD7skF6;"Albania;Algeria;Angola;Argentina;Armenia;Bangladesh;Benin;Bolivia;Bosnia;Botswana;Brazil;Bulgaria;Burkina Faso;Burundi;Cambodia;Cameroon;Central African Republic;Chad;Chile;China;Colombia;Congo;Costa Rica;Cote d’Ivoire;Croatia;Czech Republic;Dominican Republic;Ecuador;Egypt;El Salvador;Ethiopia;Finland;France;Gambia;Georgia;Germany;Ghana;Greece;Guatemala;Guinea;Haiti;Honduras;India;Indonesia;Italy;Jordan;Kenya;Kosovo;Latvia;Lebanon;Lesotho;Liberia;Lithuania;Madagascar;Malawi;Mali;Mexico;Morocco;Mozambique;Namibia;Nepal;Nicaragua;Niger;Nigeria;North Macedonia;Pakistan;Palestine;Panama;Paraguay;Peru;Philippines;Poland;Portugal;Romania;Rwanda;Senegal;Serbia;Sierra Leone;Somalia;South Africa;South Sudan;Spain;Sri Lanka;Sudan;Syria;Tanzania;Thailand;Togo;Tunisia;Turkey;Uganda;Ukraine;Uruguay;Venezuela;Vietnam;Zambia;Zimbabwe"
Médecins Sans Frontières;Greece;Santé;39.0742;21.8243;https://www.msf.org;https://www.msf.fr/agir/soutenir-nos-actions/faire-un-don-en-ligne;
Oxfam;Guatemala;Développement;15.7835;-90.2308;https://www.oxfam.org;https://give.oxfamamerica.org/page/73920/donate/1?;
Handicap International;Indonesia;Santé;-0.7893;113.9213;https://www.handicap-international.org;https://don.handicap-international.fr/don-hi/~mon-don?_cv=1;
Save the Children;Türkiye;Éducation;38.9637;35.2433;https://www.savethechildren.net;https://www.savethechildren.net/donate/nmm-donate-save-children-h-ga?utm_source=google&utm_medium=cpc&utm_campaign=evergreen&utm_content=sitelink_arc426&utm_term=don&gad_source=1;
Islamic Relief;Somalia;Urgence;5.1521;46.1996;https://www.islamic-relief.org;https://fr.islamic-relief.org/donation/;
World Vision;Bolivia;Développement;-16.2902;-63.5887;https://www.wvi.org;https://www.wvi.org/donate?;
Human Rights Watch;Sweden;Droits humains;60.1282;18.6435;https://www.hrw.org;https://donate.hrw.org/page/119043/donate/1?locale=fr-FR;
CARE International;Thailand;Urgence;15.8700;100.9925;https://www.care.org;https://www.care.org/donate;
ActionAid;Nigeria;Développement;9.082;8.6753;https://actionaid.org;https://dons.actionaid.fr;
Mercy Malaysia;Malaysia;Santé;4.2105;101.9758;https://www.mercy.org.my;https://www.google.com/url?sa=t&source=web&rct=j&opi=89978449&url=https://hss.mercy.org.my/mercy-start/recent&ved=2ahUKEwjjxpKI8c6QAxWQUaQEHcxKAmYQjBB6BAgYEAE&usg=AOvVaw3f03yjUZ49OET_N-tLHVqC;Malaysia
Plan International;Paraguay;Éducation;-23.4425;-58.4438;https://plan-international.org;https://plan-international.org/get-involved/make-a-donation/;Peru
World Food Programme;Peru;Nutrition;-9.19;-75.0152;https://www.wfp.org;https://www.wfp.org/support-us/stories/donate?utm_source=google&utm_medium=cpc&utm_campaign=15931914681&utm_content=132800584456&gclsrc=aw.ds&gad_source=1&gad_campaignid=15931914681&gbraid=0AAAAACOf4HrRXahnQ8yue7XDjbS5p__KE&gclid=Cj0KCQjwvJHIBhCgARIsAEQnWlACuGxTKyJxN_bc5SU5fI0CJzGPy1OipdwzDN1313uTw1NU9-3WfhgaAmJ4EALw_wcB;
The Asia Foundation;Asia;Développement;0;0;https://asiafoundation.org :contentReference[oaicite:0]{index=0};https://asiafoundation.org/donate/;"Afghanistan;Bangladesh;Cambodia;India;Indonesia;Laos;Malaysia;Mongolia;Myanmar;Nepal;Pakistan;Philippines;Sri Lanka;Thailand;Timor Leste;Vietnam"
Hagar International;Viet Nam;Droits humains;21.0285;105.8542;https://hagarinternational.org :contentReference[oaicite:2]{index=2};https://hagarinternational.org/donate/;"Afghanistan;Cambodia;Singapore;Vietnam"
Asian Forum for Human Rights and Development (FORUM-ASIA);Thailand;Droits humains;13.7563;100.5018;https://www.forum-asia.org/ :contentReference[oaicite:3]{index=3};;"Bangladesh;Cambodia;India;Indonesia;Japan;Malaysia;Mongolia;Myanmar;Nepal;Pakistan;Philippines;Singapore;South Korea;Sri Lanka;Thailand;Timor Leste;Vietnam"
Malteser International;Thaïlande;Santé;20.5937;78.9629;https://www.malteser-international.org/en/our-work/asia.html :contentReference[oaicite:4]{index=4};https://www.malteser-international.org/fr/faire-un-don.html;"Afghanistan;Bangladesh;Burkina Faso;Cambodia;Colombia;Democratic Republic of the Congo;Ethiopia;Haiti;India;Indonesia;Iraq;Kenya;Lebanon;Myanmar;Nepal;Pakistan;Palestine;Philippines;South Sudan;Syria;Thailand;Turkey;Uganda;Ukraine;Yemen"
CARE International;Inde;Urgence;15.8700;100.9925;https://www.care.org/our-work/where-we-work/thailand/ :contentReference[oaicite:5]{index=5};https://www.care.org/donate;
ECPAT International;Thaïlande;Protection enfants;15.8700;100.9925;https://www.ecpat.org/ :contentReference[oaicite:6]{index=6};https://action.ecpat.org/donate;"Afghanistan;Bangladesh;Belgium;Bolivia;Brazil;Bulgaria;Cambodia;Canada;Chile;Colombia;Costa Rica;Cote d’Ivoire;Denmark;Dominican Republic;Ecuador;Ethiopia;France;Germany;Ghana;Guatemala;Haiti;India;Indonesia;Italy;Japan;Kenya;Laos;Lebanon;Liberia;Luxembourg;Madagascar;Malawi;Malaysia;Mexico;Moldova;Mongolia;Morocco;Nepal;Netherlands;Nicaragua;Nigeria;Norway;Pakistan;Peru;Philippines;Poland;Portugal;Romania;Senegal;Serbia;Sierra Leone;South Africa;Spain;Sri Lanka;Suriname;Sweden;Switzerland;Tanzania;Thailand;Togo;Tunisia;Turkey;Uganda;Ukraine;United Kingdom;United States;Uruguay;Vietnam;Zambia;Zimbabwe"
HelpAge Asia Pacific;Thaïlande;Droits des personnes âgées;15.8700;100.9925;https://www.helpage.org/asia-pacific/ :contentReference[oaicite:7]{index=7};https://www.helpage.org/about-us/support-us/;"Bangladesh;Cambodia;China;India;Indonesia;Laos;Malaysia;Mongolia;Myanmar;Nepal;Pakistan;Philippines;Sri Lanka;Thailand;Vietnam"
Slum Soccer;Thaïlande;Insertion & jeunesse;20.5937;78.9629;https://www.slumsoccer.org/ :contentReference[oaicite:8]{index=8};https://www.slumsoccer.org;India
Global Sikhs;Inde;Urgence;20.5937;78.9629;https://theglobalsikhs.org/ :contentReference[oaicite:9]{index=9};https://www.google.com/url?sa=t&source=web&rct=j&opi=89978449&url=https://www.theglobalsikhs.org/donate&ved=2ahUKEwj7wNCggs-QAxUmOPsDHUpsFUcQFnoECBcQAQ&usg=AOvVaw0hdL8td8SgupJ4kvoxCqoN;"Australia;Canada;India;Kenya;Malaysia;Nepal;Pakistan;Philippines;South Africa;Thailand;United Arab Emirates;United Kingdom;United States"
War Child;Inde;Éducation;33.9391;67.7100;https://www.warchild.org/ :contentReference[oaicite:10]{index=10};https://www.google.com/url?sa=t&source=web&rct=j&opi=89978449&url=https://www.warchild.net/donate/&ved=2ahUKEwjq8c-5gs-QAxWEfqQEHbSjL1oQFnoECBkQAQ&usg=AOvVaw0dpWx3bUMWu23cvN4rWS43;
Educate Girls;Afghanistan;Éducation;20.5937;78.9629;https://www.educategirls.ngo/ :contentReference[oaicite:11]{index=11};https://www.google.com/url?sa=t&source=web&rct=j&opi=89978449&url=https://www.educategirls.ngo/donate/&ved=2ahUKEwjr3fS7gs-QAxVdNvsDHSekCoEQjBB6BAgYEAE&usg=AOvVaw2kjw90Imdh8CiqibtG-WJL;India
BRAC;Inde;Développement;23.6850;90.3563;https://www.brac.net/ :contentReference[oaicite:12]{index=12};https://donate.brac.net/cybs/web/live/;
Animals Asia;Bangladesh;Protection animale;35.8617;104.1954;https://www.animalsasia.org/ :contentReference[oaicite:13]{index=13};https://www.google.com/url?sa=t&source=web&rct=j&opi=89978449&url=https://www.animalsasia.org/support-us/donate-to-help-animals-in-asia/&ved=2ahUKEwjdveGXg8-QAxUMTqQEHcIKImoQjBB6BAgaEAE&usg=AOvVaw117X2QXt3LLxE8vT-evVL7;
Dubai Cares;Chine/Vietnam;Éducation;25.2048;55.2708;https://www.dubaicares.ae/ :contentReference[oaicite:14]{index=14};https://www.dubaicares.ae/supports-us/donate/;
People in Need;Émirats arabes unis;Humanitaire;49.8175;15.4730;https://www.peopleinneed.net/ :contentReference[oaicite:15]{index=15};https://www.peopleinneed.net/donate/once;
Good Neighbors;République tchèque;Développement;35.9078;127.7669;https://www.goodneighbors.org/ :contentReference[oaicite:16]{index=16};https://www.goodneighbors.org/donate/;
Child in Need Institute (CINI);Corée du Sud;Éducation;20.5937;78.9629;https://www.cini-india.org/ :contentReference[oaicite:17]{index=17};https://cini-india.org/donation/;
GAVI Alliance;Inde;Santé;46.8182;8.2275;https://www.gavi.org/ :contentReference[oaicite:18]{index=18};;
World Vision;Suisse;Développement;20.5937;78.9629;https://www.wvi.org/ :contentReference[oaicite:19]{index=19};https://www.wvi.org/donate?;
;Inde;;;;;;